{
  "type": "FeatureCollection",
  "features": [
    { "type": "Feature", "properties": { "name": "Albay Bacacay" }, "geometry": { "type": "Point", "coordinates": [123.7915, 13.2934] } },
    { "type": "Feature", "properties": { "name": "Albay Camalig" }, "geometry": { "type": "Point", "coordinates": [123.6948, 13.1412] } },
    { "type": "Feature", "properties": { "name": "Albay Daraga" }, "geometry": { "type": "Point", "coordinates": [123.6933, 13.1619] } },
    { "type": "Feature", "properties": { "name": "Albay Guinobatan" }, "geometry": { "type": "Point", "coordinates": [123.5986, 13.1928] } },
    { "type": "Feature", "properties": { "name": "Albay Jovellar" }, "geometry": { "type": "Point", "coordinates": [123.5998, 13.0726] } },
    { "type": "Feature", "properties": { "name": "Albay City of Legazpi" }, "geometry": { "type": "Point", "coordinates": [123.7353, 13.1391] } },
    { "type": "Feature", "properties": { "name": "Albay Libon" }, "geometry": { "type": "Point", "coordinates": [123.4386, 13.2997] } },
    { "type": "Feature", "properties": { "name": "Albay City of Ligao" }, "geometry": { "type": "Point", "coordinates": [123.5397, 13.2403] } },
    { "type": "Feature", "properties": { "name": "Albay Malilipot" }, "geometry": { "type": "Point", "coordinates": [123.7384, 13.318] } },
    { "type": "Feature", "properties": { "name": "Albay Malinao" }, "geometry": { "type": "Point", "coordinates": [123.706, 13.3992] } },
    { "type": "Feature", "properties": { "name": "Albay Manito" }, "geometry": { "type": "Point", "coordinates": [123.8691, 13.0975] } },
    { "type": "Feature", "properties": { "name": "Albay Oas" }, "geometry": { "type": "Point", "coordinates": [123.4951, 13.2583] } },
    { "type": "Feature", "properties": { "name": "Albay Pio Duran" }, "geometry": { "type": "Point", "coordinates": [123.4905, 13.0297] } },
    { "type": "Feature", "properties": { "name": "Albay Polangui" }, "geometry": { "type": "Point", "coordinates": [123.4851, 13.2923] } },
    { "type": "Feature", "properties": { "name": "Albay Rapu-Rapu" }, "geometry": { "type": "Point", "coordinates": [124.1258, 13.1861] } },
    { "type": "Feature", "properties": { "name": "Albay Santo Domingo" }, "geometry": { "type": "Point", "coordinates": [123.7612, 13.0432] } },
    { "type": "Feature", "properties": { "name": "Albay City of Tabaco" }, "geometry": { "type": "Point", "coordinates": [123.7337, 13.3587] } },
    { "type": "Feature", "properties": { "name": "Albay Tiwi" }, "geometry": { "type": "Point", "coordinates": [123.6805, 13.4585] } },

    { "type": "Feature", "properties": { "name": "Camarines Norte Basud" }, "geometry": { "type": "Point", "coordinates": [122.9642, 14.0654] } },
    { "type": "Feature", "properties": { "name": "Camarines Norte Capalonga" }, "geometry": { "type": "Point", "coordinates": [123.6731, 14.3305] } },
    { "type": "Feature", "properties": { "name": "Camarines Norte Daet" }, "geometry": { "type": "Point", "coordinates": [122.9553, 14.1122] } },
    { "type": "Feature", "properties": { "name": "Camarines Norte San Lorenzo Ruiz" }, "geometry": { "type": "Point", "coordinates": [122.7707, 14.1098] } },
    { "type": "Feature", "properties": { "name": "Camarines Norte Jose Panganiban" }, "geometry": { "type": "Point", "coordinates": [122.6918, 14.2906] } },
    { "type": "Feature", "properties": { "name": "Camarines Norte Labo" }, "geometry": { "type": "Point", "coordinates": [122.8303, 14.1531] } },
    { "type": "Feature", "properties": { "name": "Camarines Norte Mercedes" }, "geometry": { "type": "Point", "coordinates": [123.0192, 14.1099] } },
    { "type": "Feature", "properties": { "name": "Camarines Norte Paracale" }, "geometry": { "type": "Point", "coordinates": [122.7881, 14.2804] } },
    { "type": "Feature", "properties": { "name": "Camarines Norte San Vicente" }, "geometry": { "type": "Point", "coordinates": [122.8743, 14.1012] } },
    { "type": "Feature", "properties": { "name": "Camarines Norte Santa Elena" }, "geometry": { "type": "Point", "coordinates": [122.3825, 14.1701] } },
    { "type": "Feature", "properties": { "name": "Camarines Norte Talisay" }, "geometry": { "type": "Point", "coordinates": [122.9204, 14.1342] } },
    { "type": "Feature", "properties": { "name": "Camarines Norte Vinzons" }, "geometry": { "type": "Point", "coordinates": [122.9061, 14.1735] } },

    { "type": "Feature", "properties": { "name": "Camarines Sur Baao" }, "geometry": { "type": "Point", "coordinates": [123.3658, 13.4549] } },
    { "type": "Feature", "properties": { "name": "Camarines Sur Balatan" }, "geometry": { "type": "Point", "coordinates": [123.3001, 13.3211] } },
    { "type": "Feature", "properties": { "name": "Camarines Sur Bato" }, "geometry": { "type": "Point", "coordinates": [123.3678, 13.3524] } },
    { "type": "Feature", "properties": { "name": "Camarines Sur Bombon" }, "geometry": { "type": "Point", "coordinates": [123.4054, 13.6598] } },
    { "type": "Feature", "properties": { "name": "Camarines Sur Buhi" }, "geometry": { "type": "Point", "coordinates": [123.5175, 13.4325] } },
    { "type": "Feature", "properties": { "name": "Camarines Sur Bula" }, "geometry": { "type": "Point", "coordinates": [123.2781, 13.4698] } },
    { "type": "Feature", "properties": { "name": "Camarines Sur Cabusao" }, "geometry": { "type": "Point", "coordinates": [123.0737, 13.7318] } },
    { "type": "Feature", "properties": { "name": "Camarines Sur Calabanga" }, "geometry": { "type": "Point", "coordinates": [123.2087, 13.7065] } },
    { "type": "Feature", "properties": { "name": "Camarines Sur Camaligan" }, "geometry": { "type": "Point", "coordinates": [123.1664, 13.6221] } },
    { "type": "Feature", "properties": { "name": "Camarines Sur Canaman" }, "geometry": { "type": "Point", "coordinates": [123.1745, 13.6489] } },
    { "type": "Feature", "properties": { "name": "Camarines Sur Caramoan" }, "geometry": { "type": "Point", "coordinates": [123.8637, 13.7715] } },
    { "type": "Feature", "properties": { "name": "Camarines Sur Del Gallego" }, "geometry": { "type": "Point", "coordinates": [122.8298, 13.9151] } },
    { "type": "Feature", "properties": { "name": "Camarines Sur Gainza" }, "geometry": { "type": "Point", "coordinates": [123.1412, 13.6179] } },
    { "type": "Feature", "properties": { "name": "Camarines Sur Garchitorena" }, "geometry": { "type": "Point", "coordinates": [123.6942, 13.8894] } },
    { "type": "Feature", "properties": { "name": "Camarines Sur Goa" }, "geometry": { "type": "Point", "coordinates": [123.4894, 13.6995] } },
    { "type": "Feature", "properties": { "name": "Camarines Sur City of Iriga" }, "geometry": { "type": "Point", "coordinates": [123.4336, 13.4229] } },
    { "type": "Feature", "properties": { "name": "Camarines Sur Lagonoy" }, "geometry": { "type": "Point", "coordinates": [123.5201, 13.7349] } },
    { "type": "Feature", "properties": { "name": "Camarines Sur Libmanan" }, "geometry": { "type": "Point", "coordinates": [123.0623, 13.6921] } },
    { "type": "Feature", "properties": { "name": "Camarines Sur Lupi" }, "geometry": { "type": "Point", "coordinates": [122.9785, 13.5332] } },
    { "type": "Feature", "properties": { "name": "Camarines Sur Magarao" }, "geometry": { "type": "Point", "coordinates": [123.186, 13.6604] } },
    { "type": "Feature", "properties": { "name": "Camarines Sur Milaor" }, "geometry": { "type": "Point", "coordinates": [123.177, 13.596] } },
    { "type": "Feature", "properties": { "name": "Camarines Sur Minalabac" }, "geometry": { "type": "Point", "coordinates": [123.1685, 13.5656] } },
    { "type": "Feature", "properties": { "name": "Camarines Sur Nabua" }, "geometry": { "type": "Point", "coordinates": [123.3724, 13.4098] } },
    { "type": "Feature", "properties": { "name": "Camarines Sur City of Naga" }, "geometry": { "type": "Point", "coordinates": [123.1814, 13.6218] } },
    { "type": "Feature", "properties": { "name": "Camarines Sur Ocampo" }, "geometry": { "type": "Point", "coordinates": [123.3761, 13.5597] } },
    { "type": "Feature", "properties": { "name": "Camarines Sur Pamplona" }, "geometry": { "type": "Point", "coordinates": [123.0815, 13.5915] } },
    { "type": "Feature", "properties": { "name": "Camarines Sur Pasacao" }, "geometry": { "type": "Point", "coordinates": [122.9777, 13.5118] } },
    { "type": "Feature", "properties": { "name": "Camarines Sur Pili" }, "geometry": { "type": "Point", "coordinates": [123.302, 13.5848] } },
    { "type": "Feature", "properties": { "name": "Camarines Sur Presentacion" }, "geometry": { "type": "Point", "coordinates": [123.0194, 14.0005] } },
    { "type": "Feature", "properties": { "name": "Camarines Sur Ragay" }, "geometry": { "type": "Point", "coordinates": [122.7923, 13.8184] } },
    { "type": "Feature", "properties": { "name": "Camarines Sur Sagñay" }, "geometry": { "type": "Point", "coordinates": [123.5237, 13.8821] } },
    { "type": "Feature", "properties": { "name": "Camarines Sur San Fernando" }, "geometry": { "type": "Point", "coordinates": [123.1457, 13.5652] } },
    { "type": "Feature", "properties": { "name": "Camarines Sur San Jose" }, "geometry": { "type": "Point", "coordinates": [123.5588, 13.6952] } },
    { "type": "Feature", "properties": { "name": "Camarines Sur Sipocot" }, "geometry": { "type": "Point", "coordinates": [122.9747, 13.7685] } },
    { "type": "Feature", "properties": { "name": "Camarines Sur Siruma" }, "geometry": { "type": "Point", "coordinates": [123.2474, 14.0007] } },
    { "type": "Feature", "properties": { "name": "Camarines Sur Tigaon" }, "geometry": { "type": "Point", "coordinates": [123.4968, 13.6331] } },
    { "type": "Feature", "properties": { "name": "Camarines Sur Tinambac" }, "geometry": { "type": "Point", "coordinates": [123.3261, 13.8147] } },

    { "type": "Feature", "properties": { "name": "Catanduanes Bagamanoc" }, "geometry": { "type": "Point", "coordinates": [124.2904, 13.9405] } },
    { "type": "Feature", "properties": { "name": "Catanduanes Baras" }, "geometry": { "type": "Point", "coordinates": [124.3697, 13.6582] } },
    { "type": "Feature", "properties": { "name": "Catanduanes Bato" }, "geometry": { "type": "Point", "coordinates": [124.3348, 13.3521] } },
    { "type": "Feature", "properties": { "name": "Catanduanes Caramoran" }, "geometry": { "type": "Point", "coordinates": [124.1282, 13.9936] } },
    { "type": "Feature", "properties": { "name": "Catanduanes Gigmoto" }, "geometry": { "type": "Point", "coordinates": [124.3904, 13.7795] } },
    { "type": "Feature", "properties": { "name": "Catanduanes Pandan" }, "geometry": { "type": "Point", "coordinates": [124.2555, 14.0458] } },
    { "type": "Feature", "properties": { "name": "Catanduanes Panganiban" }, "geometry": { "type": "Point", "coordinates": [124.2967, 13.8458] } },
    { "type": "Feature", "properties": { "name": "Catanduanes San Andres" }, "geometry": { "type": "Point", "coordinates": [124.1014, 13.6002] } },
    { "type": "Feature", "properties": { "name": "Catanduanes San Miguel" }, "geometry": { "type": "Point", "coordinates": [124.2437, 13.6928] } },
    { "type": "Feature", "properties": { "name": "Catanduanes Viga" }, "geometry": { "type": "Point", "coordinates": [124.3078, 13.8715] } },
    { "type": "Feature", "properties": { "name": "Catanduanes Virac" }, "geometry": { "type": "Point", "coordinates": [124.2374, 13.5848] } },

    { "type": "Feature", "properties": { "name": "Masbate Aroroy" }, "geometry": { "type": "Point", "coordinates": [123.3984, 12.5113] } },
    { "type": "Feature", "properties": { "name": "Masbate Baleno" }, "geometry": { "type": "Point", "coordinates": [123.7337, 12.4736] } },
    { "type": "Feature", "properties": { "name": "Masbate Balud" }, "geometry": { "type": "Point", "coordinates": [123.1501, 12.0377] } },
    { "type": "Feature", "properties": { "name": "Masbate Batuan" }, "geometry": { "type": "Point", "coordinates": [123.7612, 12.421] } },
    { "type": "Feature", "properties": { "name": "Masbate Cataingan" }, "geometry": { "type": "Point", "coordinates": [123.9928, 12.0034] } },
    { "type": "Feature", "properties": { "name": "Masbate Cawayan" }, "geometry": { "type": "Point", "coordinates": [123.7694, 11.9234] } },
    { "type": "Feature", "properties": { "name": "Masbate Claveria" }, "geometry": { "type": "Point", "coordinates": [123.2451, 12.9034] } },
    { "type": "Feature", "properties": { "name": "Masbate Dimasalang" }, "geometry": { "type": "Point", "coordinates": [123.8621, 12.1921] } },
    { "type": "Feature", "properties": { "name": "Masbate Esperanza" }, "geometry": { "type": "Point", "coordinates": [124.0412, 11.7364] } },
    { "type": "Feature", "properties": { "name": "Masbate Mandaon" }, "geometry": { "type": "Point", "coordinates": [123.2855, 12.2254] } },
    { "type": "Feature", "properties": { "name": "Masbate City of Masbate" }, "geometry": { "type": "Point", "coordinates": [123.5826, 12.3689] } },
    { "type": "Feature", "properties": { "name": "Masbate Milagros" }, "geometry": { "type": "Point", "coordinates": [123.5098, 12.2184] } },
    { "type": "Feature", "properties": { "name": "Masbate Mobo" }, "geometry": { "type": "Point", "coordinates": [123.6577, 12.3415] } },
    { "type": "Feature", "properties": { "name": "Masbate Monreal" }, "geometry": { "type": "Point", "coordinates": [123.6941, 12.6448] } },
    { "type": "Feature", "properties": { "name": "Masbate Palanas" }, "geometry": { "type": "Point", "coordinates": [123.4722, 12.0863] } },
    { "type": "Feature", "properties": { "name": "Masbate Pio V. Corpuz" }, "geometry": { "type": "Point", "coordinates": [123.9855, 11.8392] } },
    { "type": "Feature", "properties": { "name": "Masbate Placer" }, "geometry": { "type": "Point", "coordinates": [123.9182, 11.8683] } },
    { "type": "Feature", "properties": { "name": "Masbate San Fernando" }, "geometry": { "type": "Point", "coordinates": [123.7624, 12.4867] } },
    { "type": "Feature", "properties": { "name": "Masbate San Jacinto" }, "geometry": { "type": "Point", "coordinates": [123.7332, 12.5675] } },
    { "type": "Feature", "properties": { "name": "Masbate San Pascual" }, "geometry": { "type": "Point", "coordinates": [123.9688, 12.7701] } },
    { "type": "Feature", "properties": { "name": "Masbate Uson" }, "geometry": { "type": "Point", "coordinates": [123.7832, 12.2258] } },

    { "type": "Feature", "properties": { "name": "Sorsogon Barcelona" }, "geometry": { "type": "Point", "coordinates": [124.1414, 12.8685] } },
    { "type": "Feature", "properties": { "name": "Sorsogon Bulan" }, "geometry": { "type": "Point", "coordinates": [123.8753, 12.6711] } },
    { "type": "Feature", "properties": { "name": "Sorsogon Bulusan" }, "geometry": { "type": "Point", "coordinates": [124.1017, 12.7544] } },
    { "type": "Feature", "properties": { "name": "Sorsogon Casiguran" }, "geometry": { "type": "Point", "coordinates": [123.9188, 12.8732] } },
    { "type": "Feature", "properties": { "name": "Sorsogon Castilla" }, "geometry": { "type": "Point", "coordinates": [123.8825, 12.9488] } },
    { "type": "Feature", "properties": { "name": "Sorsogon Donsol" }, "geometry": { "type": "Point", "coordinates": [123.5997, 12.9056] } },
    { "type": "Feature", "properties": { "name": "Sorsogon Gubat" }, "geometry": { "type": "Point", "coordinates": [124.1238, 12.9237] } },
    { "type": "Feature", "properties": { "name": "Sorsogon Irosin" }, "geometry": { "type": "Point", "coordinates": [124.0326, 12.7024] } },
    { "type": "Feature", "properties": { "name": "Sorsogon Juban" }, "geometry": { "type": "Point", "coordinates": [123.9998, 12.7844] } },
    { "type": "Feature", "properties": { "name": "Sorsogon Magallanes" }, "geometry": { "type": "Point", "coordinates": [123.8401, 12.8295] } },
    { "type": "Feature", "properties": { "name": "Sorsogon Matnog" }, "geometry": { "type": "Point", "coordinates": [124.0845, 12.5871] } },
    { "type": "Feature", "properties": { "name": "Sorsogon Pilar" }, "geometry": { "type": "Point", "coordinates": [123.6721, 12.9274] } },
    { "type": "Feature", "properties": { "name": "Sorsogon Prieto Diaz" }, "geometry": { "type": "Point", "coordinates": [124.1935, 13.0417] } },
    { "type": "Feature", "properties": { "name": "Sorsogon Santa Magdalena" }, "geometry": { "type": "Point", "coordinates": [124.1091, 12.6465] } },
    { "type": "Feature", "properties": { "name": "Sorsogon City of Sorsogon" }, "geometry": { "type": "Point", "coordinates": [124.005, 12.9739] } }
  ]
}